{
  "hospitals": [
    { "lat": 22.5411, "lng": 88.3378, "name": "Apollo Gleneagles Hospital" },
    { "lat": 22.5735, "lng": 88.3639, "name": "SSKM Hospital" },
    { "lat": 22.5140, "lng": 88.4012, "name": "Fortis Hospital Kolkata" },
    { "lat": 22.5804, "lng": 88.3903, "name": "AMRI Hospital Dhakuria" },
    { "lat": 22.5375, "lng": 88.3435, "name": "Calcutta Medical Research Institute" },
    { "lat": 22.4950, "lng": 88.3700, "name": "Medica Superspecialty Hospital" },
    { "lat": 22.5726, "lng": 88.3639, "name": "R.G. Kar Medical College and Hospital" },
    { "lat": 22.6140, "lng": 88.4100, "name": "Columbia Asia Hospital" },
    { "lat": 22.5800, "lng": 88.4200, "name": "Peerless Hospital" },
    { "lat": 22.5320, "lng": 88.3530, "name": "Woodlands Multispeciality Hospital" },
    { "lat": 22.5675, "lng": 88.3575, "name": "Belle Vue Clinic" },
    { "lat": 22.4875, "lng": 88.3910, "name": "Ruby General Hospital" },
    { "lat": 22.6200, "lng": 88.4000, "name": "Charnock Hospital" },
    { "lat": 22.5950, "lng": 88.3700, "name": "NRS Medical College and Hospital" },
    { "lat": 22.5300, "lng": 88.3400, "name": "Kothari Medical Centre" }
  ],
  "medical_stores": [
    { "lat": 22.5726, "lng": 88.3639, "name": "Apollo Pharmacy, Shyambazar" },
    { "lat": 22.5411, "lng": 88.3378, "name": "MedPlus, Salt Lake" },
    { "lat": 22.5804, "lng": 88.3903, "name": "Guardian Pharmacy, Dhakuria" },
    { "lat": 22.5140, "lng": 88.4012, "name": "HealthKart Pharmacy, Anandapur" },
    { "lat": 22.5375, "lng": 88.3435, "name": "Wellness Forever, Alipore" },
    { "lat": 22.4950, "lng": 88.3700, "name": "Apollo Pharmacy, Mukundapur" },
    { "lat": 22.5675, "lng": 88.3575, "name": "MedPlus, Minto Park" },
    { "lat": 22.4875, "lng": 88.3910, "name": "Guardian Pharmacy, Kasba" },
    { "lat": 22.6200, "lng": 88.4000, "name": "HealthKart Pharmacy, Teghoria" },
    { "lat": 22.5950, "lng": 88.3700, "name": "Wellness Forever, Sealdah" },
    { "lat": 22.5300, "lng": 88.3400, "name": "Apollo Pharmacy, Ballygunge" },
    { "lat": 22.5800, "lng": 88.4200, "name": "MedPlus, Panchasayar" },
    { "lat": 22.6140, "lng": 88.4100, "name": "Guardian Pharmacy, New Town" },
    { "lat": 22.5500, "lng": 88.3500, "name": "HealthKart Pharmacy, Park Street" },
    { "lat": 22.5700, "lng": 88.3600, "name": "Wellness Forever, Bhowanipore" }
  ],
  "fire_stations": [
    { "lat": 22.5726, "lng": 88.3639, "name": "Shyambazar Fire Station" },
    { "lat": 22.5411, "lng": 88.3378, "name": "Salt Lake Fire Station" },
    { "lat": 22.5804, "lng": 88.3903, "name": "Dhakuria Fire Station" },
    { "lat": 22.5140, "lng": 88.4012, "name": "Anandapur Fire Station" },
    { "lat": 22.5375, "lng": 88.3435, "name": "Alipore Fire Station" },
    { "lat": 22.4950, "lng": 88.3700, "name": "Mukundapur Fire Station" },
    { "lat": 22.5675, "lng": 88.3575, "name": "Minto Park Fire Station" },
    { "lat": 22.4875, "lng": 88.3910, "name": "Kasba Fire Station" },
    { "lat": 22.6200, "lng": 88.4000, "name": "Teghoria Fire Station" },
    { "lat": 22.5950, "lng": 88.3700, "name": "Sealdah Fire Station" },
    { "lat": 22.5300, "lng": 88.3400, "name": "Ballygunge Fire Station" },
    { "lat": 22.5800, "lng": 88.4200, "name": "Panchasayar Fire Station" },
    { "lat": 22.6140, "lng": 88.4100, "name": "New Town Fire Station" },
    { "lat": 22.5500, "lng": 88.3500, "name": "Park Street Fire Station" },
    { "lat": 22.5700, "lng": 88.3600, "name": "Bhowanipore Fire Station" }
  ],
  "ev_charging": [
    { "lat": 22.5726, "lng": 88.3639, "name": "Tata Power EV Charging Station, Shyambazar" },
    { "lat": 22.5411, "lng": 88.3378, "name": "Ather Grid Charging Station, Salt Lake" },
    { "lat": 22.5804, "lng": 88.3903, "name": "EESL EV Charging Station, Dhakuria" },
    { "lat": 22.5140, "lng": 88.4012, "name": "Magenta EV Charging Station, Anandapur" },
    { "lat": 22.5375, "lng": 88.3435, "name": "Delta EV Charging Station, Alipore" },
    { "lat": 22.4950, "lng": 88.3700, "name": "Tata Power EV Charging Station, Mukundapur" },
    { "lat": 22.5675, "lng": 88.3575, "name": "Ather Grid Charging Station, Minto Park" }
  ]
}
